{
"type": "FeatureCollection",
"crs": { "type": "name",
	"properties": { "name": "urn:ogc:def:crs:OGC:1.3:CRS84" } },
"features": [
	{ "type": "Feature", "id": 1, "properties": { "name": "Starbucks", "address": "1185 Avenue of the Americas", "borough": "Manhattan", "city": "New York", "state": "NY", "yelp_url": "http://www.yelp.com/biz/starbucks-manhattan-187", "outlets": "no" }, "geometry": { "type": "Point", "coordinates": [ -73.982353, 40.758034 ] } },
	{ "type": "Feature", "id": 2, "properties": { "name": "FedEx Office Print & Ship Center", "address": "1211 Avenue of the Americas", "borough": "Manhattan", "city": "New York", "state": "NY", "yelp_url": "http://www.yelp.com/biz/fedex-office-print-and-ship-center-new-york-7", "outlets": "no" }, "geometry": { "type": "Point", "coordinates": [ -73.982305, 40.758457 ] } },
	{ "type": "Feature", "id": 3, "properties": { "name": "New York Public Library", "address": "5th Avenue East 42nd Street", "borough": "Manhattan", "city": "New York", "state": "NY", "yelp_url": "http://www.yelp.com/biz/new-york-public-library-new-york-48", "outlets": "yes" }, "geometry": { "type": "Point", "coordinates": [ -73.982109, 40.753206 ] } },
	{ "type": "Feature", "id": 4, "properties": { "name": "South 4th Bar & Caf√©", "address": "90 S 4th St", "borough": "Brooklyn", "city": "New York", "state": "NY", "yelp_url": "http://www.yelp.com/biz/south-4th-bar-and-caf%C3%A9-brooklyn-2", "outlets": "yes" }, "geometry": { "type": "Point", "coordinates": [ -73.964376, 40.712357 ] } },
	{ "type": "Feature", "id": 5, "properties": { "name": "Blu Cafe", "address": "120 Riverside Blvd", "borough": "Manhattan", "city": "New York", "state": "NY", "yelp_url": "http://www.yelp.com/biz/blu-cafe-new-york", "outlets": "yes" }, "geometry": { "type": "Point", "coordinates": [ -73.989146, 40.776691 ] } },
	{ "type": "Feature", "id": 6, "properties": { "name": "Think Coffee", "address": "248 Mercer St", "borough": "Manhattan", "city": "New York", "state": "NY", "yelp_url": "http://www.yelp.com/biz/think-coffee-new-york-2", "outlets": "yes" }, "geometry": { "type": "Point", "coordinates": [ -73.995336, 40.728299 ] } },
	{ "type": "Feature", "id": 7, "properties": { "name": "The Vagabond Cafe", "address": "7 Cornelia St", "borough": "Manhattan", "city": "New York", "state": "NY", "yelp_url": "http://www.yelp.com/biz/the-vagabond-cafe-new-york", "outlets": "yes" }, "geometry": { "type": "Point", "coordinates": [ -74.001859, 40.731641 ] } },
	{ "type": "Feature", "id": 8, "properties": { "name": "Gregory's Coffee", "address": "874 Avenue of the Americas", "borough": "Manhattan", "city": "New York", "state": "NY", "yelp_url": "http://www.yelp.com/biz/gregorys-coffee-new-york-5", "outlets": "yes" }, "geometry": { "type": "Point", "coordinates": [ -73.989058, 40.747724 ] } },
	{ "type": "Feature", "id": 9, "properties": { "name": "Supercore", "address": "305 Bedford Ave", "borough": "Brooklyn", "city": "New York", "state": "NY", "yelp_url": "http://www.yelp.com/biz/supercore-brooklyn", "outlets": "no" }, "geometry": { "type": "Point", "coordinates": [ -73.961809, 40.713515 ] } }
]
}
